{"type":"FeatureCollection","features":[{"type":"Feature","id":"node/292732962","properties":{"name":"ชลบุรี","name:en":"Chon Buri","public_transport":"stop_position","railway":"stop","railway:ref:en":"COB","train":"yes","id":"node/292732962"},"geometry":{"type":"Point","coordinates":[100.9983535,13.3422267]}},{"type":"Feature","id":"node/2061807513","properties":{"bus":"yes","highway":"bus_stop","name":"Yellow Bus Terminal","public_transport":"platform","source":"GPS","id":"node/2061807513"},"geometry":{"type":"Point","coordinates":[101.0140755,13.3880557]}},{"type":"Feature","id":"node/3697973867","properties":{"amenity":"bus_station","bus":"yes","name":"อีสเทิร์น","public_transport":"station","id":"node/3697973867"},"geometry":{"type":"Point","coordinates":[100.9902056,13.3663263]}},{"type":"Feature","id":"node/4242573394","properties":{"amenity":"bus_station","bus":"yes","name":"Bus/Minivan Station","opening_hours":"Mo-Su 05:30-09:00","public_transport":"station","id":"node/4242573394"},"geometry":{"type":"Point","coordinates":[100.9742218,13.341224]}},{"type":"Feature","id":"node/5466115542","properties":{"highway":"bus_stop","id":"node/5466115542"},"geometry":{"type":"Point","coordinates":[100.9974213,13.3729156]}},{"type":"Feature","id":"node/5659108487","properties":{"addr:city":"ตำบลบ้านสวน อำเภอเมือง","addr:postcode":"20000","addr:street":"ซอยบ้านสวน-เลี่ยงเมือง 28","name":"ชลบุรี","name:en":"Chon Buri","public_transport":"stop_position","railway":"stop","railway:ref:en":"COB","train":"yes","id":"node/5659108487"},"geometry":{"type":"Point","coordinates":[100.9983061,13.3422715]}},{"type":"Feature","id":"node/9218260605","properties":{"name":"ชลบุรี","name:en":"Chon Buri","public_transport":"station","railway":"station","railway:ref":"ชบ","railway:ref:en":"COB","railway:station_category":"1","ref":"ชบ.","ref:station":"3032","train":"yes","id":"node/9218260605"},"geometry":{"type":"Point","coordinates":[100.9982915,13.3421976]}}]}